[
  {
    "nombre": "Oficina Central: La Paz",
    "direccion": "Dirección: Avenida Mariscal Santa Cruz Esquina Calle Oruro Edificio Telecomunicaciones",
    "telefono": "+591 22152423",
    "email": "agbc@correos.gob.bo",
    "horario": "Lunes a viernes: 8:30 a 16:30",
    "lat": -16.499149,
    "lng": -68.135114
  },
  {
    "nombre": "Regional: Cochabamba",
    "direccion": "Dirección: Calle Ayacucho esquina Av. Heroínas N° 113",
    "telefono": "+591 22152423 INT 333",
    "email": "agbc@correos.gob.bo",
    "horario": "Lunes a viernes: 8:30 a 16:30",
    "lat": -17.39282,
    "lng": -66.15862
  },
  {
    "nombre": "Regional : Santa Cruz",
    "direccion": "Dirección: Calle Cobija Entre Sucre y Ballivian N° 24",
    "telefono": "+591 22152423 INT 340",
    "email": "agbc@correos.gob.bo",
    "horario": "Lunes a viernes: 8:30 a 16:30",
    "lat": -17.78349,
    "lng": -63.17466
  },
  {
    "nombre": "Regional : Oruro",
    "direccion": "Dirección: Calle Presidente Montes Esquina Junin N° 1456",
    "telefono": "+591 22152423 INT 339",
    "email": "agbc@correos.gob.bo",
    "horario": "Lunes a viernes: 8:30 a 16:30",
    "lat": -17.9687,
    "lng": -67.11488
  },
  {
    "nombre": "Regional : Potosi",
    "direccion": "Dirección: Calle Hoyos Esquina Topater, Villa Imperial de Potosí",
    "telefono": "+591 22152423 INT 338",
    "email": "agbc@correos.gob.bo",
    "horario": "Lunes a viernes: 8:30 a 16:30",
    "lat": -19.5887,
    "lng": -65.74893
  },
  {
    "nombre": "Regional : Tarija",
    "direccion": "Dirección: Calle Mariscal Sucre esquina Virginio Lema N° 397",
    "telefono": "+591 22152423 INT 334",
    "email": "agbc@correos.gob.bo",
    "horario": "Lunes a viernes: 8:30 a 16:30",
    "lat": -21.53612,
    "lng": -64.73457
  },
  {
    "nombre": "Regional : Sucre",
    "direccion": "Dirección: Calle Junin Esquina Ayacucho N° 699",
    "telefono": "+591 22152423 INT 337",
    "email": "agbc@correos.gob.bo",
    "horario": "Lunes a viernes: 8:30 a 16:30",
    "lat": -19.04715,
    "lng": -65.26139
  },
  {
    "nombre": "Regional : Beni",
    "direccion": "Dirección: Calle Cipriano Barace N°10 Entre Manuel Limpias y Calle Sucre",
    "telefono": "+591 22152423 INT 335",
    "email": "agbc@correos.gob.bo",
    "horario": "Lunes a viernes: 8:30 a 16:30",
    "lat": -14.83445,
    "lng": -64.90328
  },
  {
    "nombre": "Regional : Pando",
    "direccion": "Dirección: Av. Bruno Recua N.- 59",
    "telefono": "+591 22152423 INT 336",
    "email": "Contacto: (591-2) 2152423 - Av. Mariscal Santa Cruz Esq. C. Oruro  Edif. Telecomunicaciones - agbc@correos.gob.bo",
    "horario": "8:30 a 16:30",
    "lat": -11.01772,
    "lng": -68.75443
  }
]